% program   : RTKPOST ver.2.4.3 b34
% inp file  : E:\Projects\Visual_studio\RINEXDataAnaliser\Data\SU5200RUS_R_20233610000_01H_01S_MO.obs
% inp file  : E:\Projects\Visual_studio\RINEXDataAnaliser\Data\Brdc3610.23n
% obs start : 2023/12/27 00:00:00.0 GPST (week2294 259200.0s)
% obs end   : 2023/12/27 00:59:59.0 GPST (week2294 262799.0s)
% pos mode  : Single
% elev mask : 0.0 deg
% ionos opt : OFF
% tropo opt : OFF
% ephemeris : Broadcast
% navi sys  : GPS
%
% (x/y/z-ecef=WGS84,Q=1:fix,2:float,3:sbas,4:dgps,5:single,6:ppp,ns=# of satellites)
%  GPST                      x-ecef(m)      y-ecef(m)      z-ecef(m)   Q  ns   sdx(m)   sdy(m)   sdz(m)  sdxy(m)  sdyz(m)  sdzx(m) age(s)  ratio
2023/12/27 00:00:00.000   2845461.4920   2160963.1859   5266001.4526   5  10   3.9200   4.0318   8.3548   1.7010   3.6903   3.6155   0.00    0.0
2023/12/27 00:00:01.000   2845461.5328   2160963.2316   5266001.6000   5  10   3.9199   4.0317   8.3531   1.7008   3.6896   3.6149   0.00    0.0
2023/12/27 00:00:02.000   2845461.4095   2160963.3485   5266001.5800   5  10   3.9198   4.0315   8.3514   1.7007   3.6888   3.6142   0.00    0.0
2023/12/27 00:00:03.000   2845461.4793   2160963.1993   5266001.5764   5  10   3.9196   4.0314   8.3497   1.7005   3.6881   3.6135   0.00    0.0
2023/12/27 00:00:04.000   2845461.3554   2160963.0154   5266001.6377   5  10   3.9195   4.0313   8.3480   1.7004   3.6873   3.6128   0.00    0.0
2023/12/27 00:00:05.000   2845461.3379   2160962.9744   5266001.4306   5  10   3.9194   4.0311   8.3463   1.7002   3.6866   3.6121   0.00    0.0
2023/12/27 00:00:06.000   2845461.1476   2160962.8662   5266001.2437   5  10   3.9192   4.0310   8.3446   1.7001   3.6858   3.6115   0.00    0.0
2023/12/27 00:00:07.000   2845461.1464   2160962.7934   5266001.2339   5  10   3.9191   4.0309   8.3429   1.6999   3.6851   3.6108   0.00    0.0
2023/12/27 00:00:08.000   2845461.2501   2160962.8204   5266000.9704   5  10   3.9190   4.0307   8.3412   1.6998   3.6843   3.6101   0.00    0.0
2023/12/27 00:00:09.000   2845461.3387   2160962.8567   5266000.9825   5  10   3.9188   4.0306   8.3395   1.6996   3.6836   3.6094   0.00    0.0
2023/12/27 00:00:10.000   2845461.5475   2160962.9113   5266000.9694   5  10   3.9187   4.0305   8.3378   1.6995   3.6828   3.6088   0.00    0.0
2023/12/27 00:00:11.000   2845461.7460   2160962.8159   5266000.8087   5  10   3.9186   4.0303   8.3361   1.6993   3.6821   3.6081   0.00    0.0
2023/12/27 00:00:12.000   2845461.6642   2160962.9081   5266000.4259   5  10   3.9184   4.0302   8.3344   1.6992   3.6813   3.6074   0.00    0.0
2023/12/27 00:00:13.000   2845461.4980   2160962.8061   5266000.2705   5  10   3.9183   4.0301   8.3327   1.6990   3.6806   3.6067   0.00    0.0
2023/12/27 00:00:14.000   2845461.4555   2160962.7514   5266000.1618   5  10   3.9182   4.0300   8.3310   1.6989   3.6798   3.6061   0.00    0.0
2023/12/27 00:00:15.000   2845461.3677   2160962.6598   5266000.3572   5  10   3.9180   4.0298   8.3293   1.6987   3.6791   3.6054   0.00    0.0
2023/12/27 00:00:16.000   2845461.3889   2160962.6757   5266000.4665   5  10   3.9179   4.0297   8.3276   1.6986   3.6783   3.6047   0.00    0.0
2023/12/27 00:00:17.000   2845461.4481   2160962.6858   5266000.7661   5  10   3.9178   4.0296   8.3259   1.6985   3.6776   3.6040   0.00    0.0
2023/12/27 00:00:18.000   2845461.3220   2160962.6946   5266000.7717   5  10   3.9176   4.0294   8.3242   1.6983   3.6768   3.6034   0.00    0.0
2023/12/27 00:00:19.000   2845461.3422   2160962.8131   5266000.9699   5  10   3.9175   4.0293   8.3225   1.6982   3.6761   3.6027   0.00    0.0
2023/12/27 00:00:20.000   2845461.4876   2160962.7388   5266001.3072   5  10   3.9174   4.0292   8.3209   1.6980   3.6753   3.6020   0.00    0.0
2023/12/27 00:00:21.000   2845461.5107   2160962.8828   5266001.7142   5  10   3.9172   4.0290   8.3192   1.6979   3.6746   3.6013   0.00    0.0
2023/12/27 00:00:22.000   2845461.3397   2160962.7060   5266001.4172   5  10   3.9171   4.0289   8.3175   1.6977   3.6738   3.6007   0.00    0.0
2023/12/27 00:00:23.000   2845461.2361   2160962.7936   5266001.3912   5  10   3.9170   4.0288   8.3158   1.6976   3.6731   3.6000   0.00    0.0
2023/12/27 00:00:24.000   2845461.1769   2160962.8021   5266001.4269   5  10   3.9168   4.0286   8.3141   1.6974   3.6723   3.5993   0.00    0.0
2023/12/27 00:00:25.000   2845461.3985   2160962.9602   5266001.5776   5  10   3.9167   4.0285   8.3124   1.6973   3.6716   3.5986   0.00    0.0
2023/12/27 00:00:26.000   2845461.6328   2160963.1298   5266001.6871   5  10   3.9166   4.0284   8.3107   1.6971   3.6708   3.5980   0.00    0.0
2023/12/27 00:00:27.000   2845461.6077   2160963.2530   5266001.8274   5  10   3.9164   4.0282   8.3090   1.6970   3.6701   3.5973   0.00    0.0
2023/12/27 00:00:28.000   2845461.5233   2160963.2438   5266002.0198   5  10   3.9163   4.0281   8.3073   1.6968   3.6693   3.5966   0.00    0.0
2023/12/27 00:00:29.000   2845461.4505   2160963.2586   5266002.0976   5  10   3.9162   4.0280   8.3056   1.6967   3.6686   3.5959   0.00    0.0
2023/12/27 00:00:30.000   2845461.4512   2160963.2128   5266002.1770   5  10   3.9160   4.0279   8.3040   1.6965   3.6678   3.5953   0.00    0.0
2023/12/27 00:00:31.000   2845461.5460   2160963.0658   5266001.8951   5  10   3.9159   4.0277   8.3023   1.6964   3.6671   3.5946   0.00    0.0
2023/12/27 00:00:32.000   2845461.7205   2160963.0507   5266001.7110   5  10   3.9158   4.0276   8.3006   1.6962   3.6663   3.5939   0.00    0.0
2023/12/27 00:00:33.000   2845461.6817   2160963.0210   5266001.5904   5  10   3.9156   4.0275   8.2989   1.6961   3.6656   3.5932   0.00    0.0
2023/12/27 00:00:34.000   2845461.6003   2160963.0259   5266001.4970   5  10   3.9155   4.0273   8.2972   1.6959   3.6648   3.5926   0.00    0.0
2023/12/27 00:00:35.000   2845461.7181   2160963.0259   5266001.7115   5  10   3.9154   4.0272   8.2955   1.6958   3.6641   3.5919   0.00    0.0
2023/12/27 00:00:36.000   2845461.7949   2160962.8850   5266001.5691   5  10   3.9152   4.0271   8.2938   1.6956   3.6633   3.5912   0.00    0.0
2023/12/27 00:00:37.000   2845461.8080   2160962.8950   5266001.5219   5  10   3.9151   4.0269   8.2922   1.6955   3.6626   3.5906   0.00    0.0
2023/12/27 00:00:38.000   2845461.7420   2160962.9939   5266001.4605   5  10   3.9150   4.0268   8.2905   1.6954   3.6618   3.5899   0.00    0.0
2023/12/27 00:00:39.000   2845461.4266   2160962.9599   5266001.5904   5  10   3.9148   4.0267   8.2888   1.6952   3.6611   3.5892   0.00    0.0
2023/12/27 00:00:40.000   2845461.3337   2160962.8410   5266001.3965   5  10   3.9147   4.0265   8.2871   1.6951   3.6604   3.5885   0.00    0.0
2023/12/27 00:00:41.000   2845461.2770   2160962.8522   5266001.5329   5  10   3.9146   4.0264   8.2854   1.6949   3.6596   3.5879   0.00    0.0
2023/12/27 00:00:42.000   2845461.2106   2160962.7771   5266001.4523   5  10   3.9144   4.0263   8.2837   1.6948   3.6589   3.5872   0.00    0.0
2023/12/27 00:00:43.000   2845461.0003   2160962.5564   5266001.2891   5  10   3.9143   4.0261   8.2821   1.6946   3.6581   3.5865   0.00    0.0
2023/12/27 00:00:44.000   2845460.9219   2160962.6229   5266001.5597   5  10   3.9142   4.0260   8.2804   1.6945   3.6574   3.5858   0.00    0.0
2023/12/27 00:00:45.000   2845460.9771   2160962.5394   5266001.6002   5  10   3.9141   4.0259   8.2787   1.6943   3.6566   3.5852   0.00    0.0
2023/12/27 00:00:46.000   2845461.2153   2160962.5654   5266001.7615   5  10   3.9139   4.0257   8.2770   1.6942   3.6559   3.5845   0.00    0.0
2023/12/27 00:00:47.000   2845461.4354   2160962.5093   5266001.6340   5  10   3.9138   4.0256   8.2753   1.6940   3.6551   3.5838   0.00    0.0
2023/12/27 00:00:48.000   2845461.4164   2160962.5731   5266001.5690   5  10   3.9137   4.0255   8.2737   1.6939   3.6544   3.5832   0.00    0.0
2023/12/27 00:00:49.000   2845461.2730   2160962.5265   5266001.3663   5  10   3.9135   4.0254   8.2720   1.6937   3.6536   3.5825   0.00    0.0
2023/12/27 00:00:50.000   2845461.3632   2160962.6545   5266001.1302   5  10   3.9134   4.0252   8.2703   1.6936   3.6529   3.5818   0.00    0.0
2023/12/27 00:00:51.000   2845461.5635   2160962.6457   5266001.1844   5  10   3.9133   4.0251   8.2686   1.6934   3.6521   3.5811   0.00    0.0
2023/12/27 00:00:52.000   2845461.5695   2160962.5957   5266001.0737   5  10   3.9131   4.0250   8.2670   1.6933   3.6514   3.5805   0.00    0.0
2023/12/27 00:00:53.000   2845461.4645   2160962.5930   5266000.6164   5  10   3.9130   4.0248   8.2653   1.6931   3.6506   3.5798   0.00    0.0
2023/12/27 00:00:54.000   2845461.5860   2160962.7104   5266000.6194   5  10   3.9129   4.0247   8.2636   1.6930   3.6499   3.5791   0.00    0.0
2023/12/27 00:00:55.000   2845461.5386   2160962.6542   5266000.6043   5  10   3.9127   4.0246   8.2619   1.6929   3.6491   3.5785   0.00    0.0
2023/12/27 00:00:56.000   2845461.5041   2160962.7320   5266000.9303   5  10   3.9126   4.0244   8.2602   1.6927   3.6484   3.5778   0.00    0.0
2023/12/27 00:00:57.000   2845461.5663   2160962.9742   5266001.3546   5  10   3.9125   4.0243   8.2586   1.6926   3.6477   3.5771   0.00    0.0
2023/12/27 00:00:58.000   2845461.6581   2160962.9912   5266001.5796   5  10   3.9123   4.0242   8.2569   1.6924   3.6469   3.5764   0.00    0.0
2023/12/27 00:00:59.000   2845461.7840   2160963.0553   5266001.6106   5  10   3.9122   4.0240   8.2552   1.6923   3.6462   3.5758   0.00    0.0
2023/12/27 00:01:00.000   2845461.7338   2160963.1474   5266001.6935   5  10   3.9121   4.0239   8.2536   1.6921   3.6454   3.5751   0.00    0.0
2023/12/27 00:01:01.000   2845461.6107   2160963.0414   5266001.6944   5  10   3.9119   4.0238   8.2519   1.6920   3.6447   3.5744   0.00    0.0
2023/12/27 00:01:02.000   2845461.7851   2160962.9000   5266001.6220   5  10   3.9118   4.0236   8.2502   1.6918   3.6439   3.5738   0.00    0.0
2023/12/27 00:01:03.000   2845461.8694   2160963.0310   5266001.5496   5  10   3.9117   4.0235   8.2485   1.6917   3.6432   3.5731   0.00    0.0
2023/12/27 00:01:04.000   2845461.6484   2160963.0445   5266001.6009   5  10   3.9115   4.0234   8.2469   1.6915   3.6424   3.5724   0.00    0.0
2023/12/27 00:01:05.000   2845461.3874   2160962.8821   5266001.2825   5  10   3.9114   4.0232   8.2452   1.6914   3.6417   3.5717   0.00    0.0
2023/12/27 00:01:06.000   2845461.5036   2160963.0349   5266001.1731   5  10   3.9113   4.0231   8.2435   1.6912   3.6409   3.5711   0.00    0.0
2023/12/27 00:01:07.000   2845461.3834   2160963.1229   5266001.3486   5  10   3.9111   4.0230   8.2419   1.6911   3.6402   3.5704   0.00    0.0
2023/12/27 00:01:08.000   2845461.2139   2160963.0164   5266001.4204   5  10   3.9110   4.0228   8.2402   1.6910   3.6395   3.5697   0.00    0.0
2023/12/27 00:01:09.000   2845460.9277   2160962.9502   5266001.3509   5  10   3.9109   4.0227   8.2385   1.6908   3.6387   3.5691   0.00    0.0
2023/12/27 00:01:10.000   2845460.9150   2160963.0652   5266001.6694   5  10   3.9107   4.0226   8.2368   1.6907   3.6380   3.5684   0.00    0.0
2023/12/27 00:01:11.000   2845461.1299   2160963.1215   5266002.1036   5  10   3.9106   4.0224   8.2352   1.6905   3.6372   3.5677   0.00    0.0
2023/12/27 00:01:12.000   2845461.1855   2160962.8634   5266002.2328   5  10   3.9105   4.0223   8.2335   1.6904   3.6365   3.5671   0.00    0.0
2023/12/27 00:01:13.000   2845461.1647   2160962.9340   5266002.2605   5  10   3.9103   4.0222   8.2318   1.6902   3.6357   3.5664   0.00    0.0
2023/12/27 00:01:14.000   2845461.1983   2160962.6614   5266002.2817   5  10   3.9102   4.0220   8.2302   1.6901   3.6350   3.5657   0.00    0.0
2023/12/27 00:01:15.000   2845461.3863   2160962.6856   5266002.2960   5  10   3.9101   4.0219   8.2285   1.6899   3.6342   3.5650   0.00    0.0
2023/12/27 00:01:16.000   2845461.6055   2160962.7664   5266002.5113   5  10   3.9099   4.0218   8.2268   1.6898   3.6335   3.5644   0.00    0.0
2023/12/27 00:01:17.000   2845461.5768   2160962.6837   5266002.4667   5  10   3.9098   4.0216   8.2252   1.6896   3.6328   3.5637   0.00    0.0
2023/12/27 00:01:18.000   2845461.6973   2160962.6324   5266002.0416   5  10   3.9097   4.0215   8.2235   1.6895   3.6320   3.5630   0.00    0.0
2023/12/27 00:01:19.000   2845461.7137   2160962.5674   5266001.6069   5  10   3.9095   4.0214   8.2219   1.6893   3.6313   3.5624   0.00    0.0
2023/12/27 00:01:20.000   2845461.5320   2160962.7072   5266001.1592   5  10   3.9094   4.0213   8.2202   1.6892   3.6305   3.5617   0.00    0.0
2023/12/27 00:01:21.000   2845461.5105   2160962.8829   5266000.9164   5  10   3.9093   4.0211   8.2185   1.6891   3.6298   3.5610   0.00    0.0
2023/12/27 00:01:22.000   2845461.3612   2160963.1500   5266001.0699   5  10   3.9091   4.0210   8.2169   1.6889   3.6290   3.5604   0.00    0.0
2023/12/27 00:01:23.000   2845461.3378   2160963.4121   5266001.2446   5  10   3.9090   4.0209   8.2152   1.6888   3.6283   3.5597   0.00    0.0
2023/12/27 00:01:24.000   2845461.5117   2160963.6316   5266001.3403   5  10   3.9089   4.0207   8.2135   1.6886   3.6275   3.5590   0.00    0.0
2023/12/27 00:01:25.000   2845461.6128   2160963.7671   5266001.3612   5  10   3.9087   4.0206   8.2119   1.6885   3.6268   3.5584   0.00    0.0
2023/12/27 00:01:26.000   2845461.7785   2160963.7656   5266001.5063   5  10   3.9086   4.0205   8.2102   1.6883   3.6261   3.5577   0.00    0.0
2023/12/27 00:01:27.000   2845461.6877   2160963.8015   5266001.6441   5  10   3.9085   4.0203   8.2086   1.6882   3.6253   3.5570   0.00    0.0
2023/12/27 00:01:28.000   2845461.8682   2160963.7512   5266002.1830   5  10   3.9083   4.0202   8.2069   1.6880   3.6246   3.5563   0.00    0.0
2023/12/27 00:01:29.000   2845461.8614   2160963.3670   5266002.2082   5  10   3.9082   4.0201   8.2052   1.6879   3.6238   3.5557   0.00    0.0
2023/12/27 00:01:30.000   2845462.0036   2160963.1713   5266002.3360   5  10   3.9081   4.0199   8.2036   1.6877   3.6231   3.5550   0.00    0.0
2023/12/27 00:01:31.000   2845461.9085   2160962.9585   5266002.4787   5  10   3.9079   4.0198   8.2019   1.6876   3.6223   3.5543   0.00    0.0
2023/12/27 00:01:32.000   2845461.8233   2160962.9404   5266002.5977   5  10   3.9078   4.0197   8.2003   1.6875   3.6216   3.5537   0.00    0.0
2023/12/27 00:01:33.000   2845461.9208   2160962.9870   5266002.6354   5  10   3.9077   4.0195   8.1986   1.6873   3.6209   3.5530   0.00    0.0
2023/12/27 00:01:34.000   2845461.8241   2160962.9408   5266002.6452   5  10   3.9075   4.0194   8.1970   1.6872   3.6201   3.5523   0.00    0.0
2023/12/27 00:01:35.000   2845461.8428   2160962.9583   5266002.3660   5  10   3.9074   4.0193   8.1953   1.6870   3.6194   3.5517   0.00    0.0
2023/12/27 00:01:36.000   2845461.8550   2160962.9323   5266002.1290   5  10   3.9073   4.0191   8.1936   1.6869   3.6186   3.5510   0.00    0.0
2023/12/27 00:01:37.000   2845461.6847   2160962.8475   5266001.7530   5  10   3.9071   4.0190   8.1920   1.6867   3.6179   3.5503   0.00    0.0
2023/12/27 00:01:38.000   2845461.6085   2160962.9375   5266001.4692   5  10   3.9070   4.0189   8.1903   1.6866   3.6172   3.5497   0.00    0.0
2023/12/27 00:01:39.000   2845461.4483   2160962.9464   5266001.1274   5  10   3.9069   4.0187   8.1887   1.6864   3.6164   3.5490   0.00    0.0
2023/12/27 00:01:40.000   2845461.5189   2160962.9011   5266001.0868   5  10   3.9067   4.0186   8.1870   1.6863   3.6157   3.5483   0.00    0.0
2023/12/27 00:01:41.000   2845461.4131   2160962.8700   5266000.9942   5  10   3.9066   4.0185   8.1854   1.6861   3.6149   3.5477   0.00    0.0
2023/12/27 00:01:42.000   2845461.4906   2160962.8376   5266001.1391   5  10   3.9065   4.0183   8.1837   1.6860   3.6142   3.5470   0.00    0.0
2023/12/27 00:01:43.000   2845461.3902   2160962.6969   5266000.8579   5  10   3.9063   4.0182   8.1821   1.6859   3.6134   3.5463   0.00    0.0
2023/12/27 00:01:44.000   2845461.4686   2160962.6999   5266000.8257   5  10   3.9062   4.0181   8.1804   1.6857   3.6127   3.5457   0.00    0.0
2023/12/27 00:01:45.000   2845461.5554   2160962.8471   5266000.9205   5  10   3.9061   4.0179   8.1788   1.6856   3.6120   3.5450   0.00    0.0
2023/12/27 00:01:46.000   2845461.5847   2160962.7713   5266001.2040   5  10   3.9060   4.0178   8.1771   1.6854   3.6112   3.5443   0.00    0.0
2023/12/27 00:01:47.000   2845461.6359   2160962.6717   5266001.2295   5  10   3.9058   4.0177   8.1755   1.6853   3.6105   3.5437   0.00    0.0
2023/12/27 00:01:48.000   2845461.7009   2160962.4567   5266001.3724   5  10   3.9057   4.0175   8.1738   1.6851   3.6097   3.5430   0.00    0.0
2023/12/27 00:01:49.000   2845461.7903   2160962.4746   5266001.2149   5  10   3.9056   4.0174   8.1722   1.6850   3.6090   3.5423   0.00    0.0
2023/12/27 00:01:50.000   2845461.7751   2160962.3426   5266001.1862   5  10   3.9054   4.0173   8.1705   1.6848   3.6083   3.5417   0.00    0.0
2023/12/27 00:01:51.000   2845461.6346   2160962.3187   5266001.1756   5  10   3.9053   4.0171   8.1689   1.6847   3.6075   3.5410   0.00    0.0
2023/12/27 00:01:52.000   2845461.6423   2160962.2060   5266001.2189   5  10   3.9052   4.0170   8.1672   1.6846   3.6068   3.5403   0.00    0.0
2023/12/27 00:01:53.000   2845461.5195   2160962.1641   5266001.1262   5  10   3.9050   4.0169   8.1656   1.6844   3.6060   3.5397   0.00    0.0
2023/12/27 00:01:54.000   2845461.6236   2160962.1061   5266000.8577   5  10   3.9049   4.0167   8.1639   1.6843   3.6053   3.5390   0.00    0.0
2023/12/27 00:01:55.000   2845461.5699   2160962.0423   5266000.5450   5  10   3.9048   4.0166   8.1623   1.6841   3.6045   3.5383   0.00    0.0
2023/12/27 00:01:56.000   2845461.7191   2160962.1849   5266000.4577   5  10   3.9046   4.0165   8.1606   1.6840   3.6038   3.5377   0.00    0.0
2023/12/27 00:01:57.000   2845461.5194   2160962.1628   5266000.2516   5  10   3.9045   4.0163   8.1590   1.6838   3.6031   3.5370   0.00    0.0
2023/12/27 00:01:58.000   2845461.2767   2160962.1197   5266000.5289   5  10   3.9044   4.0162   8.1574   1.6837   3.6023   3.5363   0.00    0.0
2023/12/27 00:01:59.000   2845461.2435   2160962.0742   5266000.8181   5  10   3.9042   4.0161   8.1557   1.6835   3.6016   3.5357   0.00    0.0
2023/12/27 00:02:00.000   2845461.1377   2160962.3012   5266000.9850   5  10   3.9041   4.0159   8.1541   1.6834   3.6008   3.5350   0.00    0.0
2023/12/27 00:02:01.000   2845461.1775   2160962.5612   5266001.1902   5  10   3.9040   4.0158   8.1524   1.6833   3.6001   3.5344   0.00    0.0
2023/12/27 00:02:02.000   2845461.4252   2160962.7774   5266001.1430   5  10   3.9038   4.0157   8.1508   1.6831   3.5994   3.5337   0.00    0.0
2023/12/27 00:02:03.000   2845461.4404   2160962.8468   5266001.2444   5  10   3.9037   4.0155   8.1491   1.6830   3.5986   3.5330   0.00    0.0
2023/12/27 00:02:04.000   2845461.3767   2160962.8269   5266001.3931   5  10   3.9036   4.0154   8.1475   1.6828   3.5979   3.5324   0.00    0.0
2023/12/27 00:02:05.000   2845461.3903   2160962.6607   5266001.4521   5  10   3.9034   4.0153   8.1459   1.6827   3.5971   3.5317   0.00    0.0
2023/12/27 00:02:06.000   2845461.2799   2160962.6827   5266001.1444   5  10   3.9033   4.0151   8.1442   1.6825   3.5964   3.5310   0.00    0.0
2023/12/27 00:02:07.000   2845461.2566   2160962.7148   5266001.3544   5  10   3.9032   4.0150   8.1426   1.6824   3.5957   3.5304   0.00    0.0
2023/12/27 00:02:08.000   2845461.3158   2160962.7980   5266001.4707   5  10   3.9030   4.0149   8.1409   1.6823   3.5949   3.5297   0.00    0.0
2023/12/27 00:02:09.000   2845461.3723   2160962.9122   5266001.7241   5  10   3.9029   4.0147   8.1393   1.6821   3.5942   3.5290   0.00    0.0
2023/12/27 00:02:10.000   2845461.4095   2160962.8604   5266001.4646   5  10   3.9028   4.0146   8.1377   1.6820   3.5935   3.5284   0.00    0.0
2023/12/27 00:02:11.000   2845461.4685   2160962.8328   5266001.5857   5  10   3.9026   4.0145   8.1360   1.6818   3.5927   3.5277   0.00    0.0
2023/12/27 00:02:12.000   2845461.4252   2160962.9819   5266001.5942   5  10   3.9025   4.0143   8.1344   1.6817   3.5920   3.5270   0.00    0.0
2023/12/27 00:02:13.000   2845461.5685   2160963.2480   5266001.8088   5  10   3.9024   4.0142   8.1328   1.6815   3.5912   3.5264   0.00    0.0
2023/12/27 00:02:14.000   2845461.5404   2160963.3791   5266001.9250   5  10   3.9022   4.0141   8.1311   1.6814   3.5905   3.5257   0.00    0.0
2023/12/27 00:02:15.000   2845461.5656   2160963.4331   5266001.7398   5  10   3.9021   4.0139   8.1295   1.6812   3.5898   3.5251   0.00    0.0
2023/12/27 00:02:16.000   2845461.5167   2160963.3967   5266001.4450   5  10   3.9020   4.0138   8.1278   1.6811   3.5890   3.5244   0.00    0.0
2023/12/27 00:02:17.000   2845461.4866   2160963.2124   5266001.3631   5  10   3.9018   4.0137   8.1262   1.6810   3.5883   3.5237   0.00    0.0
2023/12/27 00:02:18.000   2845461.3284   2160963.0176   5266001.2007   5  10   3.9017   4.0135   8.1246   1.6808   3.5875   3.5231   0.00    0.0
2023/12/27 00:02:19.000   2845461.3382   2160962.8706   5266001.2336   5  10   3.9016   4.0134   8.1229   1.6807   3.5868   3.5224   0.00    0.0
2023/12/27 00:02:20.000   2845461.5186   2160962.7831   5266001.3333   5  10   3.9015   4.0133   8.1213   1.6805   3.5861   3.5217   0.00    0.0
2023/12/27 00:02:21.000   2845461.5942   2160962.7550   5266001.5668   5  10   3.9013   4.0131   8.1197   1.6804   3.5853   3.5211   0.00    0.0
2023/12/27 00:02:22.000   2845461.7312   2160962.7061   5266001.6429   5  10   3.9012   4.0130   8.1180   1.6802   3.5846   3.5204   0.00    0.0
2023/12/27 00:02:23.000   2845461.7665   2160962.6331   5266001.6380   5  10   3.9011   4.0129   8.1164   1.6801   3.5839   3.5198   0.00    0.0
2023/12/27 00:02:24.000   2845461.6229   2160962.5344   5266001.7543   5  10   3.9009   4.0127   8.1148   1.6800   3.5831   3.5191   0.00    0.0
2023/12/27 00:02:25.000   2845461.5907   2160962.3831   5266001.6696   5  10   3.9008   4.0126   8.1132   1.6798   3.5824   3.5184   0.00    0.0
2023/12/27 00:02:26.000   2845461.6296   2160962.4693   5266001.9426   5  10   3.9007   4.0125   8.1115   1.6797   3.5816   3.5178   0.00    0.0
2023/12/27 00:02:27.000   2845461.5659   2160962.5150   5266001.7736   5  10   3.9005   4.0123   8.1099   1.6795   3.5809   3.5171   0.00    0.0
2023/12/27 00:02:28.000   2845461.5805   2160962.5535   5266001.7571   5  10   3.9004   4.0122   8.1083   1.6794   3.5802   3.5164   0.00    0.0
2023/12/27 00:02:29.000   2845461.5311   2160962.7262   5266001.8774   5  10   3.9003   4.0121   8.1066   1.6792   3.5794   3.5158   0.00    0.0
2023/12/27 00:02:30.000   2845461.5584   2160962.6355   5266001.9624   5  10   3.9001   4.0119   8.1050   1.6791   3.5787   3.5151   0.00    0.0
2023/12/27 00:02:31.000   2845461.2976   2160962.5373   5266001.8567   5  10   3.9000   4.0118   8.1034   1.6790   3.5780   3.5145   0.00    0.0
2023/12/27 00:02:32.000   2845461.3241   2160962.4925   5266001.7200   5  10   3.8999   4.0117   8.1017   1.6788   3.5772   3.5138   0.00    0.0
2023/12/27 00:02:33.000   2845461.3828   2160962.5201   5266001.5827   5  10   3.8997   4.0115   8.1001   1.6787   3.5765   3.5131   0.00    0.0
2023/12/27 00:02:34.000   2845461.3897   2160962.5270   5266001.3727   5  10   3.8996   4.0114   8.0985   1.6785   3.5757   3.5125   0.00    0.0
2023/12/27 00:02:35.000   2845461.3430   2160962.5884   5266001.0310   5  10   3.8995   4.0113   8.0969   1.6784   3.5750   3.5118   0.00    0.0
2023/12/27 00:02:36.000   2845461.3836   2160962.4608   5266000.8903   5  10   3.8993   4.0111   8.0952   1.6782   3.5743   3.5112   0.00    0.0
2023/12/27 00:02:37.000   2845461.5565   2160962.5150   5266000.9025   5  10   3.8992   4.0110   8.0936   1.6781   3.5735   3.5105   0.00    0.0
2023/12/27 00:02:38.000   2845461.6571   2160962.4578   5266000.8953   5  10   3.8991   4.0109   8.0920   1.6780   3.5728   3.5098   0.00    0.0
2023/12/27 00:02:39.000   2845461.7520   2160962.5757   5266000.6973   5  10   3.8989   4.0107   8.0904   1.6778   3.5721   3.5092   0.00    0.0
2023/12/27 00:02:40.000   2845461.6499   2160962.7121   5266001.0440   5  10   3.8988   4.0106   8.0887   1.6777   3.5713   3.5085   0.00    0.0
2023/12/27 00:02:41.000   2845461.6126   2160962.7180   5266001.2214   5  10   3.8987   4.0105   8.0871   1.6775   3.5706   3.5078   0.00    0.0
2023/12/27 00:02:42.000   2845461.5344   2160962.5388   5266001.1887   5  10   3.8985   4.0103   8.0855   1.6774   3.5699   3.5072   0.00    0.0
2023/12/27 00:02:43.000   2845461.5093   2160962.5830   5266001.3553   5  10   3.8984   4.0102   8.0839   1.6772   3.5691   3.5065   0.00    0.0
2023/12/27 00:02:44.000   2845461.4884   2160962.7223   5266001.4891   5  10   3.8983   4.0101   8.0823   1.6771   3.5684   3.5059   0.00    0.0
2023/12/27 00:02:45.000   2845461.4782   2160962.6934   5266001.6658   5  10   3.8982   4.0099   8.0806   1.6770   3.5677   3.5052   0.00    0.0
2023/12/27 00:02:46.000   2845461.4954   2160962.6300   5266001.6154   5  10   3.8980   4.0098   8.0790   1.6768   3.5669   3.5045   0.00    0.0
2023/12/27 00:02:47.000   2845461.4076   2160962.5804   5266001.5964   5  10   3.8979   4.0097   8.0774   1.6767   3.5662   3.5039   0.00    0.0
2023/12/27 00:02:48.000   2845461.3433   2160962.6696   5266001.7059   5  10   3.8978   4.0095   8.0758   1.6765   3.5654   3.5032   0.00    0.0
2023/12/27 00:02:49.000   2845461.4577   2160962.7090   5266001.7607   5  10   3.8976   4.0094   8.0742   1.6764   3.5647   3.5026   0.00    0.0
2023/12/27 00:02:50.000   2845461.4924   2160962.7788   5266001.8779   5  10   3.8975   4.0093   8.0725   1.6762   3.5640   3.5019   0.00    0.0
2023/12/27 00:02:51.000   2845461.5795   2160962.7805   5266001.8778   5  10   3.8974   4.0091   8.0709   1.6761   3.5632   3.5013   0.00    0.0
2023/12/27 00:02:52.000   2845461.6241   2160962.7580   5266001.6777   5  10   3.8972   4.0090   8.0693   1.6760   3.5625   3.5006   0.00    0.0
2023/12/27 00:02:53.000   2845461.6115   2160962.8048   5266001.5668   5  10   3.8971   4.0089   8.0677   1.6758   3.5618   3.4999   0.00    0.0
2023/12/27 00:02:54.000   2845461.5764   2160962.7201   5266001.2035   5  10   3.8970   4.0087   8.0661   1.6757   3.5610   3.4993   0.00    0.0
2023/12/27 00:02:55.000   2845461.5999   2160962.7149   5266001.2240   5  10   3.8968   4.0086   8.0645   1.6755   3.5603   3.4986   0.00    0.0
2023/12/27 00:02:56.000   2845461.4673   2160962.6909   5266001.4754   5  10   3.8967   4.0085   8.0628   1.6754   3.5596   3.4980   0.00    0.0
2023/12/27 00:02:57.000   2845461.2206   2160962.6892   5266001.7396   5  10   3.8966   4.0083   8.0612   1.6753   3.5588   3.4973   0.00    0.0
2023/12/27 00:02:58.000   2845461.2160   2160962.6173   5266001.9225   5  10   3.8964   4.0082   8.0596   1.6751   3.5581   3.4966   0.00    0.0
2023/12/27 00:02:59.000   2845461.1102   2160962.3365   5266001.7421   5  10   3.8963   4.0080   8.0580   1.6750   3.5574   3.4960   0.00    0.0
2023/12/27 00:03:00.000   2845461.1725   2160962.4437   5266001.6972   5  10   3.8962   4.0079   8.0564   1.6748   3.5566   3.4953   0.00    0.0
2023/12/27 00:03:01.000   2845461.2299   2160962.4436   5266001.5806   5  10   3.8960   4.0078   8.0548   1.6747   3.5559   3.4947   0.00    0.0
2023/12/27 00:03:02.000   2845461.4084   2160962.4928   5266001.2097   5  10   3.8959   4.0076   8.0532   1.6745   3.5552   3.4940   0.00    0.0
2023/12/27 00:03:03.000   2845461.4982   2160962.4083   5266000.7156   5  10   3.8958   4.0075   8.0516   1.6744   3.5544   3.4933   0.00    0.0
2023/12/27 00:03:04.000   2845461.7355   2160962.4842   5266000.4421   5  10   3.8956   4.0074   8.0499   1.6743   3.5537   3.4927   0.00    0.0
2023/12/27 00:03:05.000   2845461.9686   2160962.5882   5266000.4107   5  10   3.8955   4.0072   8.0483   1.6741   3.5530   3.4920   0.00    0.0
2023/12/27 00:03:06.000   2845462.0060   2160962.5648   5266000.3916   5  10   3.8954   4.0071   8.0467   1.6740   3.5522   3.4914   0.00    0.0
2023/12/27 00:03:07.000   2845462.1356   2160962.4790   5266000.6135   5  10   3.8953   4.0070   8.0451   1.6738   3.5515   3.4907   0.00    0.0
2023/12/27 00:03:08.000   2845462.0746   2160962.4367   5266000.8416   5  10   3.8951   4.0068   8.0435   1.6737   3.5508   3.4901   0.00    0.0
2023/12/27 00:03:09.000   2845461.9730   2160962.5467   5266000.5379   5  10   3.8950   4.0067   8.0419   1.6736   3.5500   3.4894   0.00    0.0
2023/12/27 00:03:10.000   2845461.8573   2160962.6362   5266000.6280   5  10   3.8949   4.0066   8.0403   1.6734   3.5493   3.4887   0.00    0.0
2023/12/27 00:03:11.000   2845461.7432   2160962.7644   5266000.9521   5  10   3.8947   4.0064   8.0387   1.6733   3.5486   3.4881   0.00    0.0
2023/12/27 00:03:12.000   2845461.7727   2160962.7681   5266001.2232   5  10   3.8946   4.0063   8.0371   1.6731   3.5478   3.4874   0.00    0.0
2023/12/27 00:03:13.000   2845461.6968   2160962.7791   5266001.0736   5  10   3.8945   4.0062   8.0355   1.6730   3.5471   3.4868   0.00    0.0
2023/12/27 00:03:14.000   2845461.6558   2160962.9867   5266001.1632   5  10   3.8943   4.0060   8.0339   1.6728   3.5464   3.4861   0.00    0.0
2023/12/27 00:03:15.000   2845461.6297   2160963.0571   5266001.4279   5  10   3.8942   4.0059   8.0323   1.6727   3.5456   3.4855   0.00    0.0
2023/12/27 00:03:16.000   2845461.5805   2160963.0508   5266001.1832   5  10   3.8941   4.0058   8.0306   1.6726   3.5449   3.4848   0.00    0.0
2023/12/27 00:03:17.000   2845461.7354   2160963.0250   5266001.4194   5  10   3.8939   4.0056   8.0290   1.6724   3.5442   3.4841   0.00    0.0
2023/12/27 00:03:18.000   2845461.6276   2160962.9446   5266001.4859   5  10   3.8938   4.0055   8.0274   1.6723   3.5434   3.4835   0.00    0.0
2023/12/27 00:03:19.000   2845461.5620   2160962.9257   5266001.3969   5  10   3.8937   4.0054   8.0258   1.6721   3.5427   3.4828   0.00    0.0
2023/12/27 00:03:20.000   2845461.5604   2160962.7553   5266001.2691   5  10   3.8935   4.0052   8.0242   1.6720   3.5420   3.4822   0.00    0.0
2023/12/27 00:03:21.000   2845461.6140   2160962.6073   5266001.4043   5  10   3.8934   4.0051   8.0226   1.6719   3.5412   3.4815   0.00    0.0
2023/12/27 00:03:22.000   2845461.6785   2160962.5493   5266001.2804   5  10   3.8933   4.0050   8.0210   1.6717   3.5405   3.4809   0.00    0.0
2023/12/27 00:03:23.000   2845461.7431   2160962.4001   5266001.3295   5  10   3.8931   4.0048   8.0194   1.6716   3.5398   3.4802   0.00    0.0
2023/12/27 00:03:24.000   2845461.6791   2160962.3862   5266001.1977   5  10   3.8930   4.0047   8.0178   1.6714   3.5391   3.4796   0.00    0.0
2023/12/27 00:03:25.000   2845461.6599   2160962.3622   5266000.8950   5  10   3.8929   4.0046   8.0162   1.6713   3.5383   3.4789   0.00    0.0
2023/12/27 00:03:26.000   2845461.4701   2160962.4644   5266001.0361   5  10   3.8928   4.0044   8.0146   1.6712   3.5376   3.4782   0.00    0.0
2023/12/27 00:03:27.000   2845461.4083   2160962.4789   5266001.1856   5  10   3.8926   4.0043   8.0130   1.6710   3.5369   3.4776   0.00    0.0
2023/12/27 00:03:28.000   2845461.3894   2160962.4396   5266000.8833   5  10   3.8925   4.0042   8.0114   1.6709   3.5361   3.4769   0.00    0.0
2023/12/27 00:03:29.000   2845461.3674   2160962.3845   5266000.7103   5  10   3.8924   4.0040   8.0098   1.6707   3.5354   3.4763   0.00    0.0
2023/12/27 00:03:30.000   2845461.4518   2160962.6289   5266000.7574   5  10   3.8922   4.0039   8.0082   1.6706   3.5347   3.4756   0.00    0.0
2023/12/27 00:03:31.000   2845461.5479   2160962.7810   5266000.7147   5  10   3.8921   4.0037   8.0066   1.6705   3.5339   3.4750   0.00    0.0
2023/12/27 00:03:32.000   2845461.6505   2160962.7923   5266000.7973   5  10   3.8920   4.0036   8.0050   1.6703   3.5332   3.4743   0.00    0.0
2023/12/27 00:03:33.000   2845461.5623   2160962.8170   5266000.6641   5  10   3.8918   4.0035   8.0034   1.6702   3.5325   3.4737   0.00    0.0
2023/12/27 00:03:34.000   2845461.6507   2160962.8052   5266000.6864   5  10   3.8917   4.0033   8.0018   1.6700   3.5317   3.4730   0.00    0.0
2023/12/27 00:03:35.000   2845461.6830   2160962.9973   5266000.7241   5  10   3.8916   4.0032   8.0002   1.6699   3.5310   3.4724   0.00    0.0
2023/12/27 00:03:36.000   2845461.8874   2160963.0311   5266000.8780   5  10   3.8914   4.0031   7.9987   1.6698   3.5303   3.4717   0.00    0.0
2023/12/27 00:03:37.000   2845461.8330   2160962.9208   5266001.0961   5  10   3.8913   4.0029   7.9971   1.6696   3.5296   3.4710   0.00    0.0
2023/12/27 00:03:38.000   2845461.9848   2160962.7834   5266001.2314   5  10   3.8912   4.0028   7.9955   1.6695   3.5288   3.4704   0.00    0.0
2023/12/27 00:03:39.000   2845462.0453   2160962.7435   5266001.6492   5  10   3.8910   4.0027   7.9939   1.6693   3.5281   3.4697   0.00    0.0
2023/12/27 00:03:40.000   2845462.0915   2160962.5521   5266001.5173   5  10   3.8909   4.0025   7.9923   1.6692   3.5274   3.4691   0.00    0.0
2023/12/27 00:03:41.000   2845461.9883   2160962.4271   5266001.3513   5  10   3.8908   4.0024   7.9907   1.6691   3.5266   3.4684   0.00    0.0
2023/12/27 00:03:42.000   2845461.7911   2160962.1990   5266001.3471   5  10   3.8907   4.0023   7.9891   1.6689   3.5259   3.4678   0.00    0.0
2023/12/27 00:03:43.000   2845461.7225   2160962.2632   5266001.5097   5  10   3.8905   4.0021   7.9875   1.6688   3.5252   3.4671   0.00    0.0
2023/12/27 00:03:44.000   2845461.7630   2160962.3737   5266001.6080   5  10   3.8904   4.0020   7.9859   1.6686   3.5244   3.4665   0.00    0.0
2023/12/27 00:03:45.000   2845461.7390   2160962.3565   5266001.5584   5  10   3.8903   4.0019   7.9843   1.6685   3.5237   3.4658   0.00    0.0
2023/12/27 00:03:46.000   2845461.6080   2160962.3783   5266001.7719   5  10   3.8901   4.0017   7.9827   1.6684   3.5230   3.4652   0.00    0.0
2023/12/27 00:03:47.000   2845461.6428   2160962.5311   5266001.8984   5  10   3.8900   4.0016   7.9811   1.6682   3.5223   3.4645   0.00    0.0
2023/12/27 00:03:48.000   2845461.5137   2160962.3645   5266001.7840   5  10   3.8899   4.0015   7.9796   1.6681   3.5215   3.4639   0.00    0.0
2023/12/27 00:03:49.000   2845461.5177   2160962.5294   5266001.6387   5  10   3.8897   4.0013   7.9780   1.6679   3.5208   3.4632   0.00    0.0
2023/12/27 00:03:50.000   2845461.4014   2160962.5327   5266001.7319   5  10   3.8896   4.0012   7.9764   1.6678   3.5201   3.4626   0.00    0.0
2023/12/27 00:03:51.000   2845461.3985   2160962.4914   5266001.8188   5  10   3.8895   4.0011   7.9748   1.6677   3.5193   3.4619   0.00    0.0
2023/12/27 00:03:52.000   2845461.5792   2160962.3776   5266001.8588   5  10   3.8893   4.0009   7.9732   1.6675   3.5186   3.4612   0.00    0.0
2023/12/27 00:03:53.000   2845461.7130   2160962.4844   5266002.0785   5  10   3.8892   4.0008   7.9716   1.6674   3.5179   3.4606   0.00    0.0
2023/12/27 00:03:54.000   2845461.8054   2160962.3640   5266002.1068   5  10   3.8891   4.0006   7.9700   1.6672   3.5172   3.4599   0.00    0.0
2023/12/27 00:03:55.000   2845461.8323   2160962.4517   5266002.3757   5  10   3.8889   4.0005   7.9684   1.6671   3.5164   3.4593   0.00    0.0
2023/12/27 00:03:56.000   2845461.8329   2160962.6416   5266002.7485   5  10   3.8888   4.0004   7.9669   1.6670   3.5157   3.4586   0.00    0.0
2023/12/27 00:03:57.000   2845461.8888   2160962.7220   5266002.7776   5  10   3.8887   4.0002   7.9653   1.6668   3.5150   3.4580   0.00    0.0
2023/12/27 00:03:58.000   2845461.8359   2160962.7130   5266002.6418   5  10   3.8886   4.0001   7.9637   1.6667   3.5143   3.4573   0.00    0.0
2023/12/27 00:03:59.000   2845461.7278   2160962.8159   5266002.6891   5  10   3.8884   4.0000   7.9621   1.6665   3.5135   3.4567   0.00    0.0
2023/12/27 00:04:00.000   2845461.6581   2160962.8678   5266002.5875   5  10   3.8883   3.9998   7.9605   1.6664   3.5128   3.4560   0.00    0.0
2023/12/27 00:04:01.000   2845461.4485   2160962.7376   5266002.5382   5  10   3.8882   3.9997   7.9589   1.6663   3.5121   3.4554   0.00    0.0
2023/12/27 00:04:02.000   2845461.5230   2160962.7065   5266002.4713   5  10   3.8880   3.9996   7.9574   1.6661   3.5113   3.4547   0.00    0.0
2023/12/27 00:04:03.000   2845461.5995   2160962.7413   5266002.0595   5  10   3.8879   3.9994   7.9558   1.6660   3.5106   3.4541   0.00    0.0
2023/12/27 00:04:04.000   2845461.5883   2160962.6670   5266001.7616   5  10   3.8878   3.9993   7.9542   1.6658   3.5099   3.4534   0.00    0.0
2023/12/27 00:04:05.000   2845461.6940   2160962.6250   5266001.8393   5  10   3.8876   3.9992   7.9526   1.6657   3.5092   3.4528   0.00    0.0
2023/12/27 00:04:06.000   2845461.7385   2160962.7256   5266001.9480   5  10   3.8875   3.9990   7.9510   1.6656   3.5084   3.4521   0.00    0.0
2023/12/27 00:04:07.000   2845461.8753   2160962.7842   5266002.0061   5  10   3.8874   3.9989   7.9495   1.6654   3.5077   3.4515   0.00    0.0
2023/12/27 00:04:08.000   2845461.9182   2160962.4855   5266001.5811   5  10   3.8872   3.9988   7.9479   1.6653   3.5070   3.4508   0.00    0.0
2023/12/27 00:04:09.000   2845461.9522   2160962.2230   5266001.5213   5  10   3.8871   3.9986   7.9463   1.6652   3.5063   3.4502   0.00    0.0
2023/12/27 00:04:10.000   2845462.0800   2160962.0772   5266001.7461   5  10   3.8870   3.9985   7.9447   1.6650   3.5055   3.4495   0.00    0.0
2023/12/27 00:04:11.000   2845462.1675   2160961.9728   5266001.5580   5  10   3.8869   3.9983   7.9431   1.6649   3.5048   3.4489   0.00    0.0
2023/12/27 00:04:12.000   2845461.9913   2160961.9899   5266001.6850   5  10   3.8867   3.9982   7.9416   1.6647   3.5041   3.4482   0.00    0.0
2023/12/27 00:04:13.000   2845461.8162   2160961.9178   5266001.8499   5  10   3.8866   3.9981   7.9400   1.6646   3.5034   3.4476   0.00    0.0
2023/12/27 00:04:14.000   2845461.7622   2160961.6908   5266001.7780   5  10   3.8865   3.9979   7.9384   1.6645   3.5026   3.4469   0.00    0.0
2023/12/27 00:04:15.000   2845461.5407   2160961.5253   5266001.5685   5  10   3.8863   3.9978   7.9368   1.6643   3.5019   3.4463   0.00    0.0
2023/12/27 00:04:16.000   2845461.5769   2160961.8551   5266001.6366   5  10   3.8862   3.9977   7.9353   1.6642   3.5012   3.4456   0.00    0.0
2023/12/27 00:04:17.000   2845461.4367   2160961.8489   5266001.5310   5  10   3.8861   3.9975   7.9337   1.6640   3.5005   3.4450   0.00    0.0
2023/12/27 00:04:18.000   2845461.2944   2160961.7468   5266001.4289   5  10   3.8859   3.9974   7.9321   1.6639   3.4997   3.4443   0.00    0.0
2023/12/27 00:04:19.000   2845461.1167   2160961.8480   5266001.4194   5  10   3.8858   3.9973   7.9306   1.6638   3.4990   3.4437   0.00    0.0
2023/12/27 00:04:20.000   2845461.0894   2160962.0500   5266001.4210   5  10   3.8857   3.9971   7.9290   1.6636   3.4983   3.4430   0.00    0.0
2023/12/27 00:04:21.000   2845461.3892   2160962.2930   5266001.6728   5  10   3.8855   3.9970   7.9274   1.6635   3.4975   3.4424   0.00    0.0
2023/12/27 00:04:22.000   2845461.4255   2160962.4483   5266002.0692   5  10   3.8854   3.9969   7.9258   1.6634   3.4968   3.4417   0.00    0.0
2023/12/27 00:04:23.000   2845461.4493   2160962.2520   5266001.9785   5  10   3.8853   3.9967   7.9243   1.6632   3.4961   3.4411   0.00    0.0
2023/12/27 00:04:24.000   2845461.5902   2160962.5126   5266002.1942   5  10   3.8852   3.9966   7.9227   1.6631   3.4954   3.4404   0.00    0.0
2023/12/27 00:04:25.000   2845461.5465   2160962.4756   5266002.2645   5  10   3.8850   3.9965   7.9211   1.6629   3.4947   3.4398   0.00    0.0
2023/12/27 00:04:26.000   2845461.5413   2160962.3952   5266002.1294   5  10   3.8849   3.9963   7.9196   1.6628   3.4939   3.4391   0.00    0.0
2023/12/27 00:04:27.000   2845461.5122   2160962.3778   5266002.0585   5  10   3.8848   3.9962   7.9180   1.6627   3.4932   3.4385   0.00    0.0
2023/12/27 00:04:28.000   2845461.5601   2160962.3956   5266001.7904   5  10   3.8846   3.9960   7.9164   1.6625   3.4925   3.4378   0.00    0.0
2023/12/27 00:04:29.000   2845461.6074   2160962.5197   5266001.6524   5  10   3.8845   3.9959   7.9149   1.6624   3.4918   3.4372   0.00    0.0
2023/12/27 00:04:30.000   2845461.4780   2160962.5809   5266001.4200   5  10   3.8844   3.9958   7.9133   1.6623   3.4910   3.4366   0.00    0.0
2023/12/27 00:04:31.000   2845461.6451   2160962.7334   5266001.4928   5  10   3.8842   3.9956   7.9117   1.6621   3.4903   3.4359   0.00    0.0
2023/12/27 00:04:32.000   2845461.7803   2160962.8148   5266001.6400   5  10   3.8841   3.9955   7.9102   1.6620   3.4896   3.4353   0.00    0.0
2023/12/27 00:04:33.000   2845461.8701   2160962.8380   5266001.4039   5  10   3.8840   3.9954   7.9086   1.6618   3.4889   3.4346   0.00    0.0
2023/12/27 00:04:34.000   2845461.8415   2160962.4793   5266001.4975   5  10   3.8839   3.9952   7.9070   1.6617   3.4881   3.4340   0.00    0.0
2023/12/27 00:04:35.000   2845461.8567   2160962.4666   5266001.4108   5  10   3.8837   3.9951   7.9055   1.6616   3.4874   3.4333   0.00    0.0
2023/12/27 00:04:36.000   2845461.8663   2160962.3585   5266001.4976   5  10   3.8836   3.9950   7.9039   1.6614   3.4867   3.4327   0.00    0.0
2023/12/27 00:04:37.000   2845461.9284   2160962.3824   5266001.4580   5  10   3.8835   3.9948   7.9023   1.6613   3.4860   3.4320   0.00    0.0
2023/12/27 00:04:38.000   2845461.9543   2160962.3321   5266001.6041   5  10   3.8833   3.9947   7.9008   1.6612   3.4852   3.4314   0.00    0.0
2023/12/27 00:04:39.000   2845462.1152   2160962.3053   5266001.6675   5  10   3.8832   3.9946   7.8992   1.6610   3.4845   3.4307   0.00    0.0
2023/12/27 00:04:40.000   2845462.1738   2160962.1706   5266001.9715   5  10   3.8831   3.9944   7.8976   1.6609   3.4838   3.4301   0.00    0.0
2023/12/27 00:04:41.000   2845462.1813   2160962.1030   5266001.9186   5  10   3.8829   3.9943   7.8961   1.6607   3.4831   3.4294   0.00    0.0
2023/12/27 00:04:42.000   2845462.2163   2160962.0140   5266001.6939   5  10   3.8828   3.9942   7.8945   1.6606   3.4824   3.4288   0.00    0.0
2023/12/27 00:04:43.000   2845462.1030   2160962.0189   5266001.3499   5  10   3.8827   3.9940   7.8930   1.6605   3.4816   3.4281   0.00    0.0
2023/12/27 00:04:44.000   2845462.0957   2160962.1095   5266001.1729   5  10   3.8825   3.9939   7.8914   1.6603   3.4809   3.4275   0.00    0.0
2023/12/27 00:04:45.000   2845461.9431   2160962.2040   5266000.9614   5  10   3.8824   3.9937   7.8898   1.6602   3.4802   3.4269   0.00    0.0
2023/12/27 00:04:46.000   2845461.9356   2160962.1238   5266000.7448   5  10   3.8823   3.9936   7.8883   1.6601   3.4795   3.4262   0.00    0.0
2023/12/27 00:04:47.000   2845461.9037   2160962.1616   5266000.2960   5  10   3.8822   3.9935   7.8867   1.6599   3.4787   3.4256   0.00    0.0
2023/12/27 00:04:48.000   2845461.8721   2160962.2490   5266000.0789   5  10   3.8820   3.9933   7.8852   1.6598   3.4780   3.4249   0.00    0.0
2023/12/27 00:04:49.000   2845461.9170   2160962.4929   5266000.3344   5  10   3.8819   3.9932   7.8836   1.6596   3.4773   3.4243   0.00    0.0
2023/12/27 00:04:50.000   2845461.8773   2160962.4801   5266000.6207   5  10   3.8818   3.9931   7.8820   1.6595   3.4766   3.4236   0.00    0.0
2023/12/27 00:04:51.000   2845461.9205   2160962.4072   5266000.9536   5  10   3.8816   3.9929   7.8805   1.6594   3.4759   3.4230   0.00    0.0
2023/12/27 00:04:52.000   2845461.9646   2160962.4482   5266001.2552   5  10   3.8815   3.9928   7.8789   1.6592   3.4751   3.4223   0.00    0.0
2023/12/27 00:04:53.000   2845461.8304   2160962.5230   5266001.2500   5  10   3.8814   3.9927   7.8774   1.6591   3.4744   3.4217   0.00    0.0
2023/12/27 00:04:54.000   2845461.8184   2160962.5881   5266001.5586   5  10   3.8812   3.9925   7.8758   1.6590   3.4737   3.4210   0.00    0.0
2023/12/27 00:04:55.000   2845462.0182   2160962.4711   5266001.5666   5  10   3.8811   3.9924   7.8743   1.6588   3.4730   3.4204   0.00    0.0
2023/12/27 00:04:56.000   2845462.0069   2160962.4298   5266001.5326   5  10   3.8810   3.9923   7.8727   1.6587   3.4722   3.4198   0.00    0.0
2023/12/27 00:04:57.000   2845461.8754   2160962.3876   5266001.4328   5  10   3.8809   3.9921   7.8712   1.6586   3.4715   3.4191   0.00    0.0
2023/12/27 00:04:58.000   2845461.7917   2160962.1794   5266001.2830   5  10   3.8807   3.9920   7.8696   1.6584   3.4708   3.4185   0.00    0.0
2023/12/27 00:04:59.000   2845461.6467   2160962.2006   5266001.3536   5  10   3.8806   3.9918   7.8681   1.6583   3.4701   3.4178   0.00    0.0
2023/12/27 00:05:00.000   2845461.6216   2160962.2597   5266000.9663   5  10   3.8805   3.9917   7.8665   1.6581   3.4694   3.4172   0.00    0.0
2023/12/27 00:05:01.000   2845461.6575   2160962.2711   5266000.7989   5  10   3.8803   3.9916   7.8650   1.6580   3.4686   3.4165   0.00    0.0
2023/12/27 00:05:02.000   2845461.5733   2160962.4249   5266001.0175   5  10   3.8802   3.9914   7.8634   1.6579   3.4679   3.4159   0.00    0.0
2023/12/27 00:05:03.000   2845461.5291   2160962.4194   5266000.8445   5  10   3.8801   3.9913   7.8618   1.6577   3.4672   3.4153   0.00    0.0
2023/12/27 00:05:04.000   2845461.5386   2160962.4818   5266001.2484   5  10   3.8799   3.9912   7.8603   1.6576   3.4665   3.4146   0.00    0.0
2023/12/27 00:05:05.000   2845461.5250   2160962.4072   5266001.3301   5  10   3.8798   3.9910   7.8588   1.6575   3.4658   3.4140   0.00    0.0
2023/12/27 00:05:06.000   2845461.4788   2160962.2707   5266001.3891   5  10   3.8797   3.9909   7.8572   1.6573   3.4650   3.4133   0.00    0.0
2023/12/27 00:05:07.000   2845461.4000   2160962.1978   5266001.7132   5  10   3.8796   3.9908   7.8557   1.6572   3.4643   3.4127   0.00    0.0
2023/12/27 00:05:08.000   2845461.4189   2160962.1908   5266001.8093   5  10   3.8794   3.9906   7.8541   1.6571   3.4636   3.4120   0.00    0.0
2023/12/27 00:05:09.000   2845461.3422   2160962.2767   5266001.9050   5  10   3.8793   3.9905   7.8526   1.6569   3.4629   3.4114   0.00    0.0
2023/12/27 00:05:10.000   2845461.3403   2160962.3112   5266002.0391   5  10   3.8792   3.9903   7.8510   1.6568   3.4622   3.4107   0.00    0.0
2023/12/27 00:05:11.000   2845461.4373   2160962.1761   5266002.3350   5  10   3.8790   3.9902   7.8495   1.6566   3.4614   3.4101   0.00    0.0
2023/12/27 00:05:12.000   2845461.4372   2160962.1205   5266002.1481   5  10   3.8789   3.9901   7.8479   1.6565   3.4607   3.4095   0.00    0.0
2023/12/27 00:05:13.000   2845461.5894   2160962.1635   5266002.0702   5  10   3.8788   3.9899   7.8464   1.6564   3.4600   3.4088   0.00    0.0
2023/12/27 00:05:14.000   2845461.5544   2160962.4420   5266001.9682   5  10   3.8786   3.9898   7.8448   1.6562   3.4593   3.4082   0.00    0.0
2023/12/27 00:05:15.000   2845461.5988   2160962.6362   5266001.9129   5  10   3.8785   3.9897   7.8433   1.6561   3.4586   3.4075   0.00    0.0
2023/12/27 00:05:16.000   2845461.5723   2160962.8517   5266001.6854   5  10   3.8784   3.9895   7.8417   1.6560   3.4578   3.4069   0.00    0.0
2023/12/27 00:05:17.000   2845461.5890   2160962.8919   5266001.5605   5  10   3.8783   3.9894   7.8402   1.6558   3.4571   3.4063   0.00    0.0
2023/12/27 00:05:18.000   2845461.8683   2160962.9685   5266001.7621   5  10   3.8781   3.9893   7.8387   1.6557   3.4564   3.4056   0.00    0.0
2023/12/27 00:05:19.000   2845461.9020   2160962.9733   5266001.8555   5  10   3.8780   3.9891   7.8371   1.6556   3.4557   3.4050   0.00    0.0
2023/12/27 00:05:20.000   2845461.8197   2160962.8482   5266002.0549   5  10   3.8779   3.9890   7.8356   1.6554   3.4550   3.4043   0.00    0.0
2023/12/27 00:05:21.000   2845461.8154   2160962.7593   5266001.9748   5  10   3.8777   3.9889   7.8340   1.6553   3.4543   3.4037   0.00    0.0
2023/12/27 00:05:22.000   2845461.7568   2160962.6392   5266002.1314   5  10   3.8776   3.9887   7.8325   1.6552   3.4535   3.4030   0.00    0.0
2023/12/27 00:05:23.000   2845461.5904   2160962.5736   5266002.0121   5  10   3.8775   3.9886   7.8310   1.6550   3.4528   3.4024   0.00    0.0
2023/12/27 00:05:24.000   2845461.6762   2160962.5520   5266001.9145   5  10   3.8774   3.9884   7.8294   1.6549   3.4521   3.4018   0.00    0.0
2023/12/27 00:05:25.000   2845461.7106   2160962.5923   5266002.1608   5  10   3.8772   3.9883   7.8279   1.6547   3.4514   3.4011   0.00    0.0
2023/12/27 00:05:26.000   2845461.6780   2160962.5408   5266002.0481   5  10   3.8771   3.9882   7.8263   1.6546   3.4507   3.4005   0.00    0.0
2023/12/27 00:05:27.000   2845461.7121   2160962.4807   5266001.7851   5  10   3.8770   3.9880   7.8248   1.6545   3.4500   3.3998   0.00    0.0
2023/12/27 00:05:28.000   2845461.7718   2160962.4179   5266001.5594   5  10   3.8768   3.9879   7.8233   1.6543   3.4492   3.3992   0.00    0.0
2023/12/27 00:05:29.000   2845461.8298   2160962.5478   5266001.4461   5  10   3.8767   3.9878   7.8217   1.6542   3.4485   3.3986   0.00    0.0
2023/12/27 00:05:30.000   2845461.7511   2160962.3390   5266001.1668   5  10   3.8766   3.9876   7.8202   1.6541   3.4478   3.3979   0.00    0.0
2023/12/27 00:05:31.000   2845461.7005   2160962.2643   5266001.1483   5  10   3.8764   3.9875   7.8186   1.6539   3.4471   3.3973   0.00    0.0
2023/12/27 00:05:32.000   2845461.7678   2160962.1735   5266001.2853   5  10   3.8763   3.9874   7.8171   1.6538   3.4464   3.3966   0.00    0.0
2023/12/27 00:05:33.000   2845461.8340   2160962.2488   5266001.2881   5  10   3.8762   3.9872   7.8156   1.6537   3.4456   3.3960   0.00    0.0
2023/12/27 00:05:34.000   2845461.6774   2160962.2072   5266001.1528   5  10   3.8761   3.9871   7.8140   1.6535   3.4449   3.3954   0.00    0.0
2023/12/27 00:05:35.000   2845461.4816   2160962.0182   5266000.9883   5  10   3.8759   3.9869   7.8125   1.6534   3.4442   3.3947   0.00    0.0
2023/12/27 00:05:36.000   2845461.4384   2160961.8923   5266000.7929   5  10   3.8758   3.9868   7.8110   1.6533   3.4435   3.3941   0.00    0.0
2023/12/27 00:05:37.000   2845461.4786   2160961.7586   5266000.6954   5  10   3.8757   3.9867   7.8094   1.6531   3.4428   3.3934   0.00    0.0
2023/12/27 00:05:38.000   2845461.4119   2160961.5867   5266000.5370   5  10   3.8755   3.9865   7.8079   1.6530   3.4421   3.3928   0.00    0.0
2023/12/27 00:05:39.000   2845461.4672   2160961.6354   5266000.7340   5  10   3.8754   3.9864   7.8064   1.6529   3.4414   3.3922   0.00    0.0
2023/12/27 00:05:40.000   2845461.4428   2160961.6150   5266000.7925   5  10   3.8753   3.9863   7.8048   1.6527   3.4406   3.3915   0.00    0.0
2023/12/27 00:05:41.000   2845461.2794   2160961.7461   5266000.5567   5  10   3.8751   3.9861   7.8033   1.6526   3.4399   3.3909   0.00    0.0
2023/12/27 00:05:42.000   2845461.2185   2160961.8284   5266000.3968   5  10   3.8750   3.9860   7.8018   1.6525   3.4392   3.3903   0.00    0.0
2023/12/27 00:05:43.000   2845461.1858   2160961.8214   5266000.3563   5  10   3.8749   3.9859   7.8003   1.6523   3.4385   3.3896   0.00    0.0
2023/12/27 00:05:44.000   2845461.3650   2160961.9895   5266000.5449   5  10   3.8748   3.9857   7.7987   1.6522   3.4378   3.3890   0.00    0.0
2023/12/27 00:05:45.000   2845461.5030   2160962.0358   5266000.4801   5  10   3.8746   3.9856   7.7972   1.6521   3.4371   3.3883   0.00    0.0
2023/12/27 00:05:46.000   2845461.5987   2160962.0730   5266000.8070   5  10   3.8745   3.9854   7.7957   1.6519   3.4363   3.3877   0.00    0.0
2023/12/27 00:05:47.000   2845461.6629   2160961.9347   5266000.9389   5  10   3.8744   3.9853   7.7941   1.6518   3.4356   3.3871   0.00    0.0
2023/12/27 00:05:48.000   2845461.5374   2160961.9540   5266000.8947   5  10   3.8742   3.9852   7.7926   1.6517   3.4349   3.3864   0.00    0.0
2023/12/27 00:05:49.000   2845461.5071   2160962.0085   5266000.9267   5  10   3.8741   3.9850   7.7911   1.6515   3.4342   3.3858   0.00    0.0
2023/12/27 00:05:50.000   2845461.7359   2160962.2490   5266001.0044   5  10   3.8740   3.9849   7.7896   1.6514   3.4335   3.3851   0.00    0.0
2023/12/27 00:05:51.000   2845461.7374   2160962.4129   5266001.2279   5  10   3.8739   3.9848   7.7880   1.6512   3.4328   3.3845   0.00    0.0
2023/12/27 00:05:52.000   2845461.7790   2160962.4659   5266001.4580   5  10   3.8737   3.9846   7.7865   1.6511   3.4321   3.3839   0.00    0.0
2023/12/27 00:05:53.000   2845461.8657   2160962.4226   5266001.4263   5  10   3.8736   3.9845   7.7850   1.6510   3.4313   3.3832   0.00    0.0
2023/12/27 00:05:54.000   2845461.8181   2160962.2994   5266001.5022   5  10   3.8735   3.9844   7.7835   1.6508   3.4306   3.3826   0.00    0.0
2023/12/27 00:05:55.000   2845461.9387   2160962.5327   5266001.9786   5  10   3.8733   3.9842   7.7819   1.6507   3.4299   3.3820   0.00    0.0
2023/12/27 00:05:56.000   2845462.0648   2160962.5370   5266002.0567   5  10   3.8732   3.9841   7.7804   1.6506   3.4292   3.3813   0.00    0.0
2023/12/27 00:05:57.000   2845462.1083   2160962.6557   5266002.0420   5  10   3.8731   3.9839   7.7789   1.6504   3.4285   3.3807   0.00    0.0
2023/12/27 00:05:58.000   2845462.1523   2160962.7828   5266002.1512   5  10   3.8730   3.9838   7.7774   1.6503   3.4278   3.3801   0.00    0.0
2023/12/27 00:05:59.000   2845462.1537   2160962.9611   5266002.1265   5  10   3.8728   3.9837   7.7759   1.6502   3.4271   3.3794   0.00    0.0
2023/12/27 00:06:00.000   2845462.0773   2160963.0713   5266001.9246   5  10   3.8727   3.9835   7.7743   1.6500   3.4263   3.3788   0.00    0.0
2023/12/27 00:06:01.000   2845461.9708   2160962.9598   5266001.6922   5  10   3.8726   3.9834   7.7728   1.6499   3.4256   3.3781   0.00    0.0
2023/12/27 00:06:02.000   2845462.0133   2160963.0010   5266001.8354   5  10   3.8724   3.9833   7.7713   1.6498   3.4249   3.3775   0.00    0.0
2023/12/27 00:06:03.000   2845462.0715   2160962.9593   5266001.7935   5  10   3.8723   3.9831   7.7698   1.6496   3.4242   3.3769   0.00    0.0
2023/12/27 00:06:04.000   2845461.9225   2160963.0147   5266001.7160   5  10   3.8722   3.9830   7.7683   1.6495   3.4235   3.3762   0.00    0.0
2023/12/27 00:06:05.000   2845461.7407   2160962.9332   5266001.2979   5  10   3.8721   3.9829   7.7667   1.6494   3.4228   3.3756   0.00    0.0
2023/12/27 00:06:06.000   2845461.8869   2160962.9117   5266001.4514   5  10   3.8719   3.9827   7.7652   1.6492   3.4221   3.3750   0.00    0.0
2023/12/27 00:06:07.000   2845461.8373   2160962.9318   5266001.3988   5  10   3.8718   3.9826   7.7637   1.6491   3.4213   3.3743   0.00    0.0
2023/12/27 00:06:08.000   2845461.9577   2160962.9589   5266001.2782   5  10   3.8717   3.9824   7.7622   1.6490   3.4206   3.3737   0.00    0.0
2023/12/27 00:06:09.000   2845461.9219   2160963.0330   5266001.3815   5  10   3.8715   3.9823   7.7607   1.6488   3.4199   3.3731   0.00    0.0
2023/12/27 00:06:10.000   2845461.9384   2160963.0553   5266001.8409   5  10   3.8714   3.9822   7.7591   1.6487   3.4192   3.3724   0.00    0.0
2023/12/27 00:06:11.000   2845461.9540   2160962.9463   5266001.8315   5  10   3.8713   3.9820   7.7576   1.6486   3.4185   3.3718   0.00    0.0
2023/12/27 00:06:12.000   2845461.9015   2160962.9382   5266001.7826   5  10   3.8711   3.9819   7.7561   1.6484   3.4178   3.3712   0.00    0.0
2023/12/27 00:06:13.000   2845461.9043   2160962.8116   5266001.5384   5  10   3.8710   3.9818   7.7546   1.6483   3.4171   3.3705   0.00    0.0
2023/12/27 00:06:14.000   2845461.9226   2160962.5108   5266001.5397   5  10   3.8709   3.9816   7.7531   1.6482   3.4164   3.3699   0.00    0.0
2023/12/27 00:06:15.000   2845461.7949   2160962.3374   5266001.6744   5  10   3.8708   3.9815   7.7516   1.6480   3.4157   3.3693   0.00    0.0
2023/12/27 00:06:16.000   2845461.7644   2160962.2484   5266001.6003   5  10   3.8706   3.9813   7.7501   1.6479   3.4149   3.3686   0.00    0.0
2023/12/27 00:06:17.000   2845461.6704   2160962.1500   5266001.3599   5  10   3.8705   3.9812   7.7486   1.6478   3.4142   3.3680   0.00    0.0
2023/12/27 00:06:18.000   2845461.6221   2160961.9787   5266001.0141   5  10   3.8704   3.9811   7.7470   1.6477   3.4135   3.3674   0.00    0.0
2023/12/27 00:06:19.000   2845461.6620   2160962.0217   5266001.0729   5  10   3.8702   3.9809   7.7455   1.6475   3.4128   3.3667   0.00    0.0
2023/12/27 00:06:20.000   2845461.7030   2160962.2333   5266001.2169   5  10   3.8701   3.9808   7.7440   1.6474   3.4121   3.3661   0.00    0.0
2023/12/27 00:06:21.000   2845461.5335   2160962.1528   5266001.4138   5  10   3.8700   3.9807   7.7425   1.6473   3.4114   3.3655   0.00    0.0
2023/12/27 00:06:22.000   2845461.6261   2160961.9931   5266001.5332   5  10   3.8699   3.9805   7.7410   1.6471   3.4107   3.3648   0.00    0.0
2023/12/27 00:06:23.000   2845461.7969   2160962.0027   5266001.7740   5  10   3.8697   3.9804   7.7395   1.6470   3.4100   3.3642   0.00    0.0
2023/12/27 00:06:24.000   2845461.7432   2160961.8875   5266001.8138   5  10   3.8696   3.9803   7.7380   1.6469   3.4093   3.3636   0.00    0.0
2023/12/27 00:06:25.000   2845461.7419   2160961.8646   5266001.9831   5  10   3.8695   3.9801   7.7365   1.6467   3.4085   3.3629   0.00    0.0
2023/12/27 00:06:26.000   2845461.6296   2160961.6692   5266002.0296   5  10   3.8693   3.9800   7.7350   1.6466   3.4078   3.3623   0.00    0.0
2023/12/27 00:06:27.000   2845461.5977   2160961.8036   5266002.2842   5  10   3.8692   3.9798   7.7335   1.6465   3.4071   3.3617   0.00    0.0
2023/12/27 00:06:28.000   2845461.5668   2160961.9270   5266002.2747   5  10   3.8691   3.9797   7.7320   1.6463   3.4064   3.3610   0.00    0.0
2023/12/27 00:06:29.000   2845461.5376   2160962.1200   5266002.2974   5  10   3.8690   3.9796   7.7304   1.6462   3.4057   3.3604   0.00    0.0
2023/12/27 00:06:30.000   2845461.4534   2160961.9528   5266002.0412   5  10   3.8688   3.9794   7.7289   1.6461   3.4050   3.3598   0.00    0.0
2023/12/27 00:06:31.000   2845461.5919   2160962.1221   5266002.1805   5  10   3.8687   3.9793   7.7274   1.6459   3.4043   3.3591   0.00    0.0
2023/12/27 00:06:32.000   2845461.5871   2160961.8029   5266001.7543   5  10   3.8686   3.9792   7.7259   1.6458   3.4036   3.3585   0.00    0.0
2023/12/27 00:06:33.000   2845461.5018   2160961.8413   5266001.9399   5  10   3.8684   3.9790   7.7244   1.6457   3.4029   3.3579   0.00    0.0
2023/12/27 00:06:34.000   2845461.5402   2160961.7963   5266001.7118   5  10   3.8683   3.9789   7.7229   1.6455   3.4022   3.3572   0.00    0.0
2023/12/27 00:06:35.000   2845461.5270   2160961.8940   5266001.6507   5  10   3.8682   3.9787   7.7214   1.6454   3.4014   3.3566   0.00    0.0
2023/12/27 00:06:36.000   2845461.3781   2160962.0313   5266001.6815   5  10   3.8681   3.9786   7.7199   1.6453   3.4007   3.3560   0.00    0.0
2023/12/27 00:06:37.000   2845461.3369   2160962.1941   5266001.8282   5  10   3.8679   3.9785   7.7184   1.6451   3.4000   3.3553   0.00    0.0
2023/12/27 00:06:38.000   2845461.2450   2160962.3683   5266001.7829   5  10   3.8678   3.9783   7.7169   1.6450   3.3993   3.3547   0.00    0.0
2023/12/27 00:06:39.000   2845461.2755   2160962.3405   5266001.7389   5  10   3.8677   3.9782   7.7154   1.6449   3.3986   3.3541   0.00    0.0
2023/12/27 00:06:40.000   2845461.2667   2160962.4238   5266001.7085   5  10   3.8676   3.9781   7.7139   1.6447   3.3979   3.3534   0.00    0.0
2023/12/27 00:06:41.000   2845461.4546   2160962.4514   5266001.6579   5  10   3.8674   3.9779   7.7124   1.6446   3.3972   3.3528   0.00    0.0
2023/12/27 00:06:42.000   2845461.5775   2160962.5111   5266001.8147   5  10   3.8673   3.9778   7.7109   1.6445   3.3965   3.3522   0.00    0.0
2023/12/27 00:06:43.000   2845461.7222   2160962.4875   5266001.7340   5  10   3.8672   3.9777   7.7094   1.6444   3.3958   3.3516   0.00    0.0
2023/12/27 00:06:44.000   2845461.7544   2160962.6362   5266001.9701   5  10   3.8670   3.9775   7.7079   1.6442   3.3951   3.3509   0.00    0.0
2023/12/27 00:06:45.000   2845461.7648   2160962.7901   5266001.8169   5  10   3.8669   3.9774   7.7064   1.6441   3.3944   3.3503   0.00    0.0
2023/12/27 00:06:46.000   2845461.9045   2160962.8534   5266001.9503   5  10   3.8668   3.9772   7.7049   1.6440   3.3936   3.3497   0.00    0.0
2023/12/27 00:06:47.000   2845461.7563   2160963.0025   5266002.0067   5  10   3.8667   3.9771   7.7034   1.6438   3.3929   3.3490   0.00    0.0
2023/12/27 00:06:48.000   2845461.7607   2160963.0746   5266001.8440   5  10   3.8665   3.9770   7.7019   1.6437   3.3922   3.3484   0.00    0.0
